[{"position":[{"lat":-53.1624888,"lng":-70.9092636}],"id":5955,"name":"Instituto Tecnológico de la Mitilicultura (INTEMIT)","comuna":"Castro","provincia":"Chiloé","region":"Los Lagos","code":0},{"position":[{"lat":-45.5770208,"lng":-72.0730561}],"id":5956,"name":"Centro de Biomateriales y Nanotecnología (CBN)","comuna":"Concepción","provincia":"Concepción","region":"Biobío","code":0},{"position":[{"lat":-53.1364217,"lng":-70.8809105}],"id":5957,"name":"Centro de Genómica Nutricional y Agroacuícola (CGNA)","comuna":"Temuco","provincia":"Cautín","region":"La Araucanía","code":0},{"position":[{"lat":-42.4829001,"lng":-73.7660878}],"id":5958,"name":"Centro para el desarrollo de la Nanociencia y la Nanotecnología (CEDENNA)","comuna":"Santiago","provincia":"Santiago","region":"Metropolitana de Santiago","code":0},{"position":[{"lat":-36.821991,"lng":-73.01157}],"id":5959,"name":"Centro de Biotecnología Acuícola (CBA)","comuna":"Estación Central","provincia":"Santiago","region":"Metropolitana de Santiago","code":0},{"position":[{"lat":-38.7360791,"lng":-72.5975319}],"id":5960,"name":"Centro de Investigación y gestión de Recursos Naturales (CIGREN)","comuna":"Valparaíso","provincia":"Valparaíso","region":"Valparaíso","code":0},{"position":[{"lat":-33.4504421,"lng":-70.6827894}],"id":5961,"name":"Centro de Biotecnología y Bioingeniería (CEBIB)","comuna":"Santiago","provincia":"Santiago","region":"Metropolitana de Santiago","code":0},{"position":[{"lat":-33.4504421,"lng":-70.6827894}],"id":5962,"name":"Centro de Modelamiento Matemático (CMM)","comuna":"Santiago","provincia":"Santiago","region":"Metropolitana de Santiago","code":0},{"position":[{"lat":-33.0268116,"lng":-71.6394501}],"id":5963,"name":"Instituto de Ecología y Biodiversidad (IEB)","comuna":"Ñuñoa","provincia":"Santiago","region":"Metropolitana de Santiago","code":0},{"position":[{"lat":-33.457624,"lng":-70.6664001}],"id":5964,"name":"Instituto de Fomento Pesquero (IFOP)","comuna":"Valparaíso","provincia":"Valparaíso","region":"Valparaíso","code":0},{"position":[{"lat":-33.4575613,"lng":-70.6694256}],"id":5965,"name":"Centro de Investigación y Desarrollo de Recursos y Ambientes Costeros  (I-MAR)","comuna":"Puerto Montt","provincia":"Llanquihue","region":"Los Lagos","code":0},{"position":[{"lat":-33.4671631,"lng":-70.5978826}],"id":5966,"name":"Fundación Chinquihue (FCH)","comuna":"Puerto Montt","provincia":"Llanquihue","region":"Los Lagos","code":0},{"position":[{"lat":-33.0397049,"lng":-71.6288612}],"id":5967,"name":"Centro Acuícola Pesquero de Investigación Aplicada (CAPIA)","comuna":"Puerto Montt","provincia":"Llanquihue","region":"Los Lagos","code":0},{"position":[{"lat":-41.4940912,"lng":-72.9898737}],"id":5968,"name":"Centro de estudios Científicos (CECS)","comuna":"Valdivia","provincia":"Valdivia","region":"Los Ríos","code":0},{"position":[{"lat":-41.51416,"lng":-73.0321737}],"id":5969,"name":"Núcleo de Estudios Ambientales (NEA)","comuna":"Temuco","provincia":"Cautín","region":"La Araucanía","code":0},{"position":[{"lat":-41.4710122,"lng":-72.9306453}],"id":5970,"name":"Núcleo de Investigación en Producción Alimentaria (NIPA)","comuna":"Temuco","provincia":"Cautín","region":"La Araucanía","code":0},{"position":[{"lat":-39.8104751,"lng":-73.2428556}],"id":5971,"name":"Centro de Investigación Marítimo Portuario  (CIMP)","comuna":"Concepción","provincia":"Concepción","region":"Biobío","code":0},{"position":[{"lat":-38.7362332,"lng":-72.606682}],"id":5972,"name":"Núcleo Milenio Centro para el Impacto Socioeconómico de las Políticas Ambientales utal (CESIESP-UTAL)","comuna":"Talca","provincia":"Talca","region":"Maule","code":0},{"position":[{"lat":-38.7038206,"lng":-72.5535396}],"id":5973,"name":"Centro de Información de Recursos Naturales (CIREN)","comuna":"Providencia","provincia":"Santiago","region":"Metropolitana de Santiago","code":0},{"position":[{"lat":-36.798554,"lng":-73.0581057}],"id":5974,"name":"Centro de Investigación Marina Quintay  (CIMARQ)","comuna":"Casablanca","provincia":"Valparaíso","region":"Valparaíso","code":0},{"position":[{"lat":-35.4041282,"lng":-71.6380366}],"id":5975,"name":"Centro de Innovación Emprendimiento y Tecnología (CIET)","comuna":"Peñalolén","provincia":"Santiago","region":"Metropolitana de Santiago","code":0},{"position":[{"lat":-33.193075,"lng":-71.70225}],"id":5977,"name":"Centro de Biología Integrativa (CBI)","comuna":"Huechuraba","provincia":"Santiago","region":"Metropolitana de Santiago","code":0},{"position":[{"lat":-33.4892966,"lng":-70.5158862}],"id":5978,"name":"Centro de Investigación en Ingeniería y Ciencias Aplicadas (CIICA)","comuna":"Las Condes","provincia":"Santiago","region":"Metropolitana de Santiago","code":0},{"position":[{"lat":-33.3765811,"lng":-70.6165752}],"id":5979,"name":"Centro de Investigación y Desarrollo en Recursos Hídricos (CIDERH)","comuna":"Iquique","provincia":"Iquique","region":"Tarapacá","code":0},{"position":[{"lat":-33.3765811,"lng":-70.6165752}],"id":5980,"name":"Dirección de Investigación y Desarrollo, Universidad de La Serena (DIDULS)","comuna":"La Serena","provincia":"Elqui","region":"Coquimbo","code":0},{"position":[{"lat":-33.4021707,"lng":-70.5108243}],"id":5981,"name":"Fundación Ciencia & Vida (FCV)","comuna":"Ñuñoa","provincia":"Santiago","region":"Metropolitana de Santiago","code":0},{"position":[{"lat":-29.9646306,"lng":-71.349669}],"id":5982,"name":"Vicerectoría de Investigación y Postgrado (VRIP)","comuna":"Copiapó","provincia":"Copiapó","region":"Atacama","code":0},{"position":[{"lat":-29.912963,"lng":-71.242629}],"id":5983,"name":"Centro de Investigación Dinámica de Ecosistemas Marinos de Altas Latitudes (IDEAL)","comuna":"Valdivia","provincia":"Valdivia","region":"Los Ríos","code":0},{"position":[{"lat":-33.4730672,"lng":-70.6192614}],"id":5984,"name":"Instituto de Bioquímica y Microbiología (IBM)","comuna":"Valdivia","provincia":"Valdivia","region":"Los Ríos","code":0},{"position":[{"lat":-27.3568567,"lng":-70.3545559}],"id":5985,"name":"Centro de Bioinnovación de Antofagasta (CBIA)","comuna":"Antofagasta","provincia":"Antofagasta","region":"Antofagasta","code":0},{"position":[{"lat":-39.8061639,"lng":-73.2538478}],"id":5986,"name":"Unidad de Desarrollo Tecnológico (UDT)","comuna":"Coronel","provincia":"Concepción","region":"Biobío","code":0},{"position":[{"lat":-39.8053883,"lng":-73.2548989}],"id":5987,"name":"Instituto Milenio de Oceanografía (IMO)","comuna":"Concepción","provincia":"Concepción","region":"Biobío","code":0},{"position":[{"lat":-23.685623,"lng":-70.4310517}],"id":5988,"name":"Núcleo Milenio Centro para el estudio de Forzantes Múltiples sobre Sistemas socio Ecológicos Marinos (MUSELS)","comuna":"Concepción","provincia":"Concepción","region":"Biobío","code":0},{"position":[{"lat":-36.972808,"lng":-73.1636637}],"id":5989,"name":"Núcleo Milenio Centro para el Impacto Socioeconómico de las Políticas Ambientales udec (CESIESP-UDEC)","comuna":"Concepción","provincia":"Concepción","region":"Biobío","code":0},{"position":[{"lat":-36.8314644,"lng":-73.0432726}],"id":5990,"name":"Núcleo Milenio de Investigación en Economía Ambiental y Recursos Naturales (ICM)","comuna":"Concepción","provincia":"Concepción","region":"Biobío","code":0},{"position":[{"lat":-36.8331098,"lng":-73.0369091}],"id":5991,"name":"Centro Interdisciplinario para la Investigación Acuícola (INCAR)","comuna":"Concepción","provincia":"Concepción","region":"Biobío","code":0},{"position":[{"lat":-36.8332433,"lng":-73.0369247}],"id":5992,"name":"Núcleo Milenio Centro de Conservación Marina (CCMUC)","comuna":"El Tabo","provincia":"San Antonio","region":"Valparaíso","code":0},{"position":[{"lat":-36.8327584,"lng":-73.0375937}],"id":5993,"name":"Estación Costera de Investigaciones Marinas (ECIM)","comuna":"El Tabo","provincia":"San Antonio","region":"Valparaíso","code":0},{"position":[{"lat":-36.8221026,"lng":-73.0388647}],"id":5994,"name":"Instituto de Alta Investigación (IAI)","comuna":"Arica","provincia":"Arica","region":"Arica y Parinacota","code":0},{"position":[{"lat":-33.5007869,"lng":-71.6355373}],"id":5995,"name":"Centro de Investigación Oceanográfica en el Pacífico SurOriental (COPAS)","comuna":"Santiago","provincia":"Santiago","region":"Metropolitana de Santiago","code":0},{"position":[{"lat":-33.4982996,"lng":-71.6298725}],"id":5996,"name":"Laboratorio Experimental de Acuicultura (LEA)","comuna":"Valparaíso","provincia":"Valparaíso","region":"Valparaíso","code":0},{"position":[{"lat":-18.4865582,"lng":-70.3085505}],"id":5997,"name":"Escuela de Ciencias del Mar (ECM)","comuna":"Valparaíso","provincia":"Valparaíso","region":"Valparaíso","code":0},{"position":[{"lat":-33.4423103,"lng":-70.6580356}],"id":5998,"name":"Centro Científico Tecnológico de Valparaiso (CCTVAL)","comuna":"Valparaíso","provincia":"Valparaíso","region":"Valparaíso","code":0},{"position":[{"lat":-33.0279505,"lng":-71.6315607}],"id":5999,"name":"Núcleo Milenio Centro para el Impacto Socioeconómico de las Políticas Ambientales puc (CESIESP-PUC)","comuna":"Santiago","provincia":"Santiago","region":"Metropolitana de Santiago","code":0},{"position":[{"lat":-33.0279505,"lng":-71.6315607}],"id":6000,"name":"Scientific and Technological Bioresource Nucleus (BIOREN-UFRO)","comuna":"Temuco","provincia":"Cautín","region":"La Araucanía","code":0},{"position":[{"lat":-33.0352386,"lng":-71.5989681}],"id":6001,"name":"Núcleo Milenio de Ecología y Manejo Sustentable de Islas Oceánicas  (ESMOI)","comuna":"Coquimbo","provincia":"Elqui","region":"Coquimbo","code":0},{"position":[{"lat":-33.4995869,"lng":-70.6176273}],"id":6002,"name":"Instituto de Investigación Pesquera (INPESCA)","comuna":"Talcahuano","provincia":"Concepción","region":"Biobío","code":0},{"position":[{"lat":-38.7506303,"lng":-72.6179011}],"id":6003,"name":"Google Patents (GPATENTS)","comuna":null,"provincia":null,"region":null,"code":0}]